%time,field.header.seq,field.header.stamp,field.header.frame_id,field.gps.header.seq,field.gps.header.stamp,field.gps.header.frame_id,field.gps.status.status,field.gps.status.service,field.gps.latitude,field.gps.longitude,field.gps.altitude,field.gps.position_covariance0,field.gps.position_covariance1,field.gps.position_covariance2,field.gps.position_covariance3,field.gps.position_covariance4,field.gps.position_covariance5,field.gps.position_covariance6,field.gps.position_covariance7,field.gps.position_covariance8,field.gps.position_covariance_type,field.heading,field.roll,field.pitch,field.mode
1551343847058381994,4454,1551343847058188464,gps_frame,0,1551343847058188464,gps_frame,4,0,39.9558065007,116.314436981,54.776,0.0,0.0,0.0,0.0,0.0,0.0,0.0,0.0,0.0,0,0.0,1.39999997616,14.0,0
1551343847141564560,4455,1551343847141311583,gps_frame,0,1551343847141311583,gps_frame,4,0,39.9558065077,116.314436992,54.776,0.0,0.0,0.0,0.0,0.0,0.0,0.0,0.0,0.0,0,0.0,1.39999997616,14.0,0
1551343847259451103,4456,1551343847259187131,gps_frame,0,1551343847259187131,gps_frame,4,0,39.9558065137,116.314436978,54.774,0.0,0.0,0.0,0.0,0.0,0.0,0.0,0.0,0.0,0,0.0,1.39999997616,14.0,0
1551343847340678433,4457,1551343847340521290,gps_frame,0,1551343847340521290,gps_frame,4,0,39.9558064473,116.314436986,54.785,0.0,0.0,0.0,0.0,0.0,0.0,0.0,0.0,0.0,0,0.0,1.39999997616,14.0,0
1551343847455805249,4458,1551343847455563130,gps_frame,0,1551343847455563130,gps_frame,4,0,39.9558065035,116.314436961,54.784,0.0,0.0,0.0,0.0,0.0,0.0,0.0,0.0,0.0,0,0.0,1.39999997616,14.0,0
1551343847545808356,4459,1551343847545616462,gps_frame,0,1551343847545616462,gps_frame,4,0,39.9558064982,116.314436971,54.781,0.0,0.0,0.0,0.0,0.0,0.0,0.0,0.0,0.0,0,0.0,1.39999997616,14.0,0
1551343847656571638,4460,1551343847656314269,gps_frame,0,1551343847656314269,gps_frame,4,0,39.9558064715,116.314436986,54.784,0.0,0.0,0.0,0.0,0.0,0.0,0.0,0.0,0.0,0,0.0,1.39999997616,14.0,0
1551343847745420164,4461,1551343847745143751,gps_frame,0,1551343847745143751,gps_frame,4,0,39.9558064838,116.314436981,54.78,0.0,0.0,0.0,0.0,0.0,0.0,0.0,0.0,0.0,0,0.0,1.39999997616,14.0,0
1551343847853879188,4462,1551343847853638876,gps_frame,0,1551343847853638876,gps_frame,4,0,39.9558064755,116.314436964,54.783,0.0,0.0,0.0,0.0,0.0,0.0,0.0,0.0,0.0,0,0.0,1.39999997616,14.0,0
1551343847942348761,4463,1551343847942064973,gps_frame,0,1551343847942064973,gps_frame,4,0,39.955806517,116.314436996,54.773,0.0,0.0,0.0,0.0,0.0,0.0,0.0,0.0,0.0,0,0.0,1.39999997616,14.0,0
1551343848062052883,4464,1551343848061759878,gps_frame,0,1551343848061759878,gps_frame,4,0,39.9558064965,116.31443696,54.78,0.0,0.0,0.0,0.0,0.0,0.0,0.0,0.0,0.0,0,0.0,1.39999997616,14.0,0
1551343848145538608,4465,1551343848145214656,gps_frame,0,1551343848145214656,gps_frame,4,0,39.9558064693,116.314436971,54.781,0.0,0.0,0.0,0.0,0.0,0.0,0.0,0.0,0.0,0,0.0,1.39999997616,14.0,0
1551343848251659194,4466,1551343848251343180,gps_frame,0,1551343848251343180,gps_frame,4,0,39.9558065078,116.314436967,54.778,0.0,0.0,0.0,0.0,0.0,0.0,0.0,0.0,0.0,0,0.0,1.39999997616,14.0,0
1551343848345377194,4467,1551343848345213150,gps_frame,0,1551343848345213150,gps_frame,4,0,39.9558064738,116.314436979,54.776,0.0,0.0,0.0,0.0,0.0,0.0,0.0,0.0,0.0,0,0.0,1.39999997616,14.0,0
1551343848460379330,4468,1551343848460105311,gps_frame,0,1551343848460105311,gps_frame,4,0,39.9558064533,116.314437005,54.78,0.0,0.0,0.0,0.0,0.0,0.0,0.0,0.0,0.0,0,0.0,1.39999997616,14.0,0
1551343848541104930,4469,1551343848540824321,gps_frame,0,1551343848540824321,gps_frame,4,0,39.9558064737,116.314436972,54.779,0.0,0.0,0.0,0.0,0.0,0.0,0.0,0.0,0.0,0,0.0,1.39999997616,14.0,0
1551343848657084674,4470,1551343848656735267,gps_frame,0,1551343848656735267,gps_frame,4,0,39.9558064597,116.314436993,54.779,0.0,0.0,0.0,0.0,0.0,0.0,0.0,0.0,0.0,0,0.0,1.39999997616,14.0,0
1551343848742048635,4471,1551343848741754561,gps_frame,0,1551343848741754561,gps_frame,4,0,39.9558064947,116.314436989,54.774,0.0,0.0,0.0,0.0,0.0,0.0,0.0,0.0,0.0,0,0.0,1.39999997616,14.0,0
1551343848856053169,4472,1551343848855773674,gps_frame,0,1551343848855773674,gps_frame,4,0,39.9558064622,116.314436981,54.778,0.0,0.0,0.0,0.0,0.0,0.0,0.0,0.0,0.0,0,0.0,1.39999997616,14.0,0
1551343848946000622,4473,1551343848945681879,gps_frame,0,1551343848945681879,gps_frame,4,0,39.9558064755,116.314436998,54.776,0.0,0.0,0.0,0.0,0.0,0.0,0.0,0.0,0.0,0,0.0,1.39999997616,14.0,0
1551343849062580165,4474,1551343849062282156,gps_frame,0,1551343849062282156,gps_frame,4,0,39.9558064685,116.314436984,54.776,0.0,0.0,0.0,0.0,0.0,0.0,0.0,0.0,0.0,0,0.0,1.39999997616,14.0,0
1551343849144922758,4475,1551343849144621370,gps_frame,0,1551343849144621370,gps_frame,4,0,39.9558064832,116.314436986,54.775,0.0,0.0,0.0,0.0,0.0,0.0,0.0,0.0,0.0,0,0.0,1.39999997616,14.0,0
1551343849254548545,4476,1551343849254226457,gps_frame,0,1551343849254226457,gps_frame,4,0,39.9558064642,116.31443701,54.777,0.0,0.0,0.0,0.0,0.0,0.0,0.0,0.0,0.0,0,0.0,1.39999997616,14.0,0
1551343849342070287,4477,1551343849341807314,gps_frame,0,1551343849341807314,gps_frame,4,0,39.9558065312,116.314436943,54.771,0.0,0.0,0.0,0.0,0.0,0.0,0.0,0.0,0.0,0,0.0,1.39999997616,14.0,0
1551343849456945395,4478,1551343849456627520,gps_frame,0,1551343849456627520,gps_frame,4,0,39.9558064977,116.314436982,54.772,0.0,0.0,0.0,0.0,0.0,0.0,0.0,0.0,0.0,0,0.0,1.39999997616,14.0,0
1551343849542480041,4479,1551343849542184110,gps_frame,0,1551343849542184110,gps_frame,4,0,39.955806539,116.31443696,54.768,0.0,0.0,0.0,0.0,0.0,0.0,0.0,0.0,0.0,0,0.0,1.39999997616,14.0,0
1551343849655920847,4480,1551343849655651282,gps_frame,0,1551343849655651282,gps_frame,4,0,39.9558065302,116.314436959,54.772,0.0,0.0,0.0,0.0,0.0,0.0,0.0,0.0,0.0,0,0.0,1.39999997616,14.0,0
1551343849744624155,4481,1551343849744309855,gps_frame,0,1551343849744309855,gps_frame,4,0,39.9558065115,116.314436962,54.774,0.0,0.0,0.0,0.0,0.0,0.0,0.0,0.0,0.0,0,0.0,1.39999997616,14.0,0
1551343849855614479,4482,1551343849855358077,gps_frame,0,1551343849855358077,gps_frame,4,0,39.955806546,116.314436956,54.767,0.0,0.0,0.0,0.0,0.0,0.0,0.0,0.0,0.0,0,0.0,1.39999997616,14.0,0
1551343849946523543,4483,1551343849946256658,gps_frame,0,1551343849946256658,gps_frame,4,0,39.955806518,116.314436961,54.772,0.0,0.0,0.0,0.0,0.0,0.0,0.0,0.0,0.0,0,0.0,1.39999997616,14.0,0
1551343850064612582,4484,1551343850064282559,gps_frame,0,1551343850064282559,gps_frame,4,0,39.9558065098,116.314436984,54.769,0.0,0.0,0.0,0.0,0.0,0.0,0.0,0.0,0.0,0,0.0,1.39999997616,14.0,0
1551343850150158528,4485,1551343850149857635,gps_frame,0,1551343850149857635,gps_frame,4,0,39.955806564,116.314437001,54.771,0.0,0.0,0.0,0.0,0.0,0.0,0.0,0.0,0.0,0,0.0,1.39999997616,14.0,0
1551343850257106092,4486,1551343850256791231,gps_frame,0,1551343850256791231,gps_frame,4,0,39.9558065237,116.31443699,54.77,0.0,0.0,0.0,0.0,0.0,0.0,0.0,0.0,0.0,0,0.0,1.39999997616,14.0,0
1551343850342644949,4487,1551343850342337588,gps_frame,0,1551343850342337588,gps_frame,4,0,39.9558065302,116.314436966,54.769,0.0,0.0,0.0,0.0,0.0,0.0,0.0,0.0,0.0,0,0.0,1.39999997616,14.0,0
1551343850463872230,4488,1551343850463619239,gps_frame,0,1551343850463619239,gps_frame,4,0,39.9558064912,116.314436841,54.766,0.0,0.0,0.0,0.0,0.0,0.0,0.0,0.0,0.0,0,0.0,1.29999995232,15.0,0
1551343850543170501,4489,1551343850542902523,gps_frame,0,1551343850542902523,gps_frame,4,0,39.9558064528,116.314436858,54.774,0.0,0.0,0.0,0.0,0.0,0.0,0.0,0.0,0.0,0,0.0,1.29999995232,15.0,0
1551343850656397365,4490,1551343850656123093,gps_frame,0,1551343850656123093,gps_frame,4,0,39.9558064597,116.314436831,54.77,0.0,0.0,0.0,0.0,0.0,0.0,0.0,0.0,0.0,0,0.0,1.29999995232,15.0,0
1551343850742603971,4491,1551343850742308714,gps_frame,0,1551343850742308714,gps_frame,4,0,39.9558064332,116.314436831,54.779,0.0,0.0,0.0,0.0,0.0,0.0,0.0,0.0,0.0,0,0.0,1.29999995232,15.0,0
1551343850856429428,4492,1551343850856079657,gps_frame,0,1551343850856079657,gps_frame,4,0,39.9558064828,116.314436843,54.769,0.0,0.0,0.0,0.0,0.0,0.0,0.0,0.0,0.0,0,0.0,1.29999995232,15.0,0
1551343850943130442,4493,1551343850942840701,gps_frame,0,1551343850942840701,gps_frame,4,0,39.955806484,116.314436854,54.765,0.0,0.0,0.0,0.0,0.0,0.0,0.0,0.0,0.0,0,0.0,1.29999995232,15.0,0
1551343851066392244,4494,1551343851066076127,gps_frame,0,1551343851066076127,gps_frame,4,0,39.9558064672,116.314436845,54.774,0.0,0.0,0.0,0.0,0.0,0.0,0.0,0.0,0.0,0,0.0,1.29999995232,15.0,0
1551343851147976669,4495,1551343851147688477,gps_frame,0,1551343851147688477,gps_frame,4,0,39.9558065027,116.314436837,54.769,0.0,0.0,0.0,0.0,0.0,0.0,0.0,0.0,0.0,0,0.0,1.29999995232,15.0,0
1551343851262027154,4496,1551343851261844043,gps_frame,0,1551343851261844043,gps_frame,4,0,39.9558064823,116.314436864,54.773,0.0,0.0,0.0,0.0,0.0,0.0,0.0,0.0,0.0,0,0.0,1.29999995232,15.0,0
1551343851346867763,4497,1551343851346642595,gps_frame,0,1551343851346642595,gps_frame,4,0,39.9558064273,116.314436822,54.771,0.0,0.0,0.0,0.0,0.0,0.0,0.0,0.0,0.0,0,0.0,1.70000004768,13.0,0
1551343851454403307,4498,1551343851454193890,gps_frame,0,1551343851454193890,gps_frame,4,0,39.9558064285,116.314436806,54.78,0.0,0.0,0.0,0.0,0.0,0.0,0.0,0.0,0.0,0,0.0,1.70000004768,13.0,0
1551343851541090341,4499,1551343851540781621,gps_frame,0,1551343851540781621,gps_frame,4,0,39.9558064615,116.314436829,54.776,0.0,0.0,0.0,0.0,0.0,0.0,0.0,0.0,0.0,0,0.0,1.70000004768,13.0,0
1551343851656076603,4500,1551343851655722109,gps_frame,0,1551343851655722109,gps_frame,4,0,39.9558064313,116.314436788,54.78,0.0,0.0,0.0,0.0,0.0,0.0,0.0,0.0,0.0,0,0.0,1.70000004768,13.0,0
1551343851741861049,4501,1551343851741550390,gps_frame,0,1551343851741550390,gps_frame,4,0,39.955806448,116.314436808,54.778,0.0,0.0,0.0,0.0,0.0,0.0,0.0,0.0,0.0,0,0.0,1.70000004768,13.0,0
1551343851859451183,4502,1551343851859181471,gps_frame,0,1551343851859181471,gps_frame,4,0,39.9558063827,116.314436829,54.779,0.0,0.0,0.0,0.0,0.0,0.0,0.0,0.0,0.0,0,0.0,1.70000004768,13.0,0
1551343851952484102,4503,1551343851952176193,gps_frame,0,1551343851952176193,gps_frame,4,0,39.955806386,116.314436808,54.786,0.0,0.0,0.0,0.0,0.0,0.0,0.0,0.0,0.0,0,0.0,1.70000004768,13.0,0
1551343852068904205,4504,1551343852068641976,gps_frame,0,1551343852068641976,gps_frame,4,0,39.9558064662,116.314436828,54.77,0.0,0.0,0.0,0.0,0.0,0.0,0.0,0.0,0.0,0,0.0,1.70000004768,13.0,0
1551343852146991712,4505,1551343852146665947,gps_frame,0,1551343852146665947,gps_frame,4,0,39.9558064583,116.314436784,54.778,0.0,0.0,0.0,0.0,0.0,0.0,0.0,0.0,0.0,0,0.0,1.70000004768,13.0,0
1551343852253103059,4506,1551343852252880055,gps_frame,0,1551343852252880055,gps_frame,4,0,39.9558064498,116.314436824,54.772,0.0,0.0,0.0,0.0,0.0,0.0,0.0,0.0,0.0,0,0.0,1.70000004768,13.0,0
1551343852342019324,4507,1551343852341688740,gps_frame,0,1551343852341688740,gps_frame,4,0,39.9558064452,116.314436795,54.778,0.0,0.0,0.0,0.0,0.0,0.0,0.0,0.0,0.0,0,0.0,1.70000004768,13.0,0
1551343852458465191,4508,1551343852458328978,gps_frame,0,1551343852458328978,gps_frame,4,0,39.9558064703,116.314436853,54.771,0.0,0.0,0.0,0.0,0.0,0.0,0.0,0.0,0.0,0,0.0,1.70000004768,13.0,0
1551343852542395619,4509,1551343852542191087,gps_frame,0,1551343852542191087,gps_frame,4,0,39.9558063687,116.314436825,54.793,0.0,0.0,0.0,0.0,0.0,0.0,0.0,0.0,0.0,0,0.0,1.70000004768,13.0,0
1551343852656443989,4510,1551343852656192849,gps_frame,0,1551343852656192849,gps_frame,4,0,39.9558064105,116.314436805,54.785,0.0,0.0,0.0,0.0,0.0,0.0,0.0,0.0,0.0,0,0.0,1.70000004768,13.0,0
1551343852745988238,4511,1551343852745662174,gps_frame,0,1551343852745662174,gps_frame,4,0,39.9558064265,116.314436861,54.78,0.0,0.0,0.0,0.0,0.0,0.0,0.0,0.0,0.0,0,0.0,1.70000004768,13.0,0
1551343852858200989,4512,1551343852857872727,gps_frame,0,1551343852857872727,gps_frame,4,0,39.9558063848,116.314436804,54.794,0.0,0.0,0.0,0.0,0.0,0.0,0.0,0.0,0.0,0,0.0,1.70000004768,13.0,0
1551343852945536907,4513,1551343852945201802,gps_frame,0,1551343852945201802,gps_frame,4,0,39.9558063533,116.314436803,54.795,0.0,0.0,0.0,0.0,0.0,0.0,0.0,0.0,0.0,0,0.0,1.70000004768,13.0,0
1551343853058906127,4514,1551343853058703989,gps_frame,0,1551343853058703989,gps_frame,4,0,39.9558063968,116.314436836,54.786,0.0,0.0,0.0,0.0,0.0,0.0,0.0,0.0,0.0,0,0.0,1.70000004768,13.0,0
1551343853143168066,4515,1551343853142896319,gps_frame,0,1551343853142896319,gps_frame,4,0,39.9558063932,116.314436835,54.784,0.0,0.0,0.0,0.0,0.0,0.0,0.0,0.0,0.0,0,0.0,1.70000004768,13.0,0
1551343853259470529,4516,1551343853259175509,gps_frame,0,1551343853259175509,gps_frame,4,0,39.9558063723,116.314436826,54.786,0.0,0.0,0.0,0.0,0.0,0.0,0.0,0.0,0.0,0,0.0,1.70000004768,13.0,0
1551343853342532116,4517,1551343853342251743,gps_frame,0,1551343853342251743,gps_frame,4,0,39.9558065133,116.314437035,54.778,0.0,0.0,0.0,0.0,0.0,0.0,0.0,0.0,0.0,0,0.0,1.70000004768,14.0,0
1551343853454807329,4518,1551343853454468777,gps_frame,0,1551343853454468777,gps_frame,4,0,39.9558064363,116.314436947,54.788,0.0,0.0,0.0,0.0,0.0,0.0,0.0,0.0,0.0,0,0.0,1.70000004768,14.0,0
1551343853547138100,4519,1551343853546747731,gps_frame,0,1551343853546747731,gps_frame,4,0,39.9558064753,116.314437007,54.779,0.0,0.0,0.0,0.0,0.0,0.0,0.0,0.0,0.0,0,0.0,1.70000004768,14.0,0
1551343853660555541,4520,1551343853660258474,gps_frame,0,1551343853660258474,gps_frame,4,0,39.9558064727,116.31443698,54.782,0.0,0.0,0.0,0.0,0.0,0.0,0.0,0.0,0.0,0,0.0,1.70000004768,14.0,0
1551343853742525828,4521,1551343853742265337,gps_frame,0,1551343853742265337,gps_frame,4,0,39.9558064737,116.31443695,54.783,0.0,0.0,0.0,0.0,0.0,0.0,0.0,0.0,0.0,0,0.0,1.70000004768,14.0,0
1551343853858957370,4522,1551343853858779981,gps_frame,0,1551343853858779981,gps_frame,4,0,39.9558064498,116.314436963,54.79,0.0,0.0,0.0,0.0,0.0,0.0,0.0,0.0,0.0,0,0.0,1.70000004768,14.0,0
1551343853942515597,4523,1551343853942303599,gps_frame,0,1551343853942303599,gps_frame,4,0,39.9558065035,116.314436982,54.787,0.0,0.0,0.0,0.0,0.0,0.0,0.0,0.0,0.0,0,0.0,1.70000004768,14.0,0
1551343854063737718,4524,1551343854063460202,gps_frame,0,1551343854063460202,gps_frame,4,0,39.9558064573,116.314437,54.782,0.0,0.0,0.0,0.0,0.0,0.0,0.0,0.0,0.0,0,0.0,1.70000004768,14.0,0
1551343854145439745,4525,1551343854145244517,gps_frame,0,1551343854145244517,gps_frame,4,0,39.9558065147,116.314437034,54.769,0.0,0.0,0.0,0.0,0.0,0.0,0.0,0.0,0.0,0,0.0,1.70000004768,14.0,0
1551343854252071968,4526,1551343854251874541,gps_frame,0,1551343854251874541,gps_frame,4,0,39.955806522,116.314437044,54.778,0.0,0.0,0.0,0.0,0.0,0.0,0.0,0.0,0.0,0,0.0,1.70000004768,14.0,0
1551343854345436988,4527,1551343854345160328,gps_frame,0,1551343854345160328,gps_frame,4,0,39.9558064948,116.314436931,54.778,0.0,0.0,0.0,0.0,0.0,0.0,0.0,0.0,0.0,0,0.0,1.79999995232,13.0,0
1551343854460603453,4528,1551343854460288946,gps_frame,0,1551343854460288946,gps_frame,4,0,39.9558065345,116.314437009,54.766,0.0,0.0,0.0,0.0,0.0,0.0,0.0,0.0,0.0,0,0.0,1.79999995232,13.0,0
1551343854542260066,4529,1551343854541928002,gps_frame,0,1551343854541928002,gps_frame,4,0,39.955806535,116.314436985,54.77,0.0,0.0,0.0,0.0,0.0,0.0,0.0,0.0,0.0,0,0.0,1.79999995232,13.0,0
1551343854655992275,4530,1551343854655720274,gps_frame,0,1551343854655720274,gps_frame,4,0,39.955806511,116.314437002,54.768,0.0,0.0,0.0,0.0,0.0,0.0,0.0,0.0,0.0,0,0.0,1.79999995232,13.0,0
1551343854742248353,4531,1551343854741936959,gps_frame,0,1551343854741936959,gps_frame,4,0,39.955806529,116.314436997,54.767,0.0,0.0,0.0,0.0,0.0,0.0,0.0,0.0,0.0,0,0.0,1.79999995232,13.0,0
1551343854857099332,4532,1551343854856881328,gps_frame,0,1551343854856881328,gps_frame,4,0,39.9558064837,116.314436956,54.779,0.0,0.0,0.0,0.0,0.0,0.0,0.0,0.0,0.0,0,0.0,1.79999995232,13.0,0
1551343854943632278,4533,1551343854943415039,gps_frame,0,1551343854943415039,gps_frame,4,0,39.9558065115,116.314436987,54.773,0.0,0.0,0.0,0.0,0.0,0.0,0.0,0.0,0.0,0,0.0,1.79999995232,13.0,0
1551343855062558814,4534,1551343855062268486,gps_frame,0,1551343855062268486,gps_frame,4,0,39.955806462,116.314436947,54.784,0.0,0.0,0.0,0.0,0.0,0.0,0.0,0.0,0.0,0,0.0,1.79999995232,13.0,0
1551343855148308307,4535,1551343855147928622,gps_frame,0,1551343855147928622,gps_frame,4,0,39.9558064713,116.314436948,54.786,0.0,0.0,0.0,0.0,0.0,0.0,0.0,0.0,0.0,0,0.0,1.79999995232,13.0,0
1551343855259651061,4536,1551343855259318980,gps_frame,0,1551343855259318980,gps_frame,4,0,39.955806512,116.314436935,54.776,0.0,0.0,0.0,0.0,0.0,0.0,0.0,0.0,0.0,0,0.0,1.79999995232,13.0,0
1551343855345888947,4537,1551343855345677645,gps_frame,0,1551343855345677645,gps_frame,4,0,39.955806503,116.314436919,54.772,0.0,0.0,0.0,0.0,0.0,0.0,0.0,0.0,0.0,0,0.0,1.29999995232,16.0,0
1551343855454965381,4538,1551343855454726753,gps_frame,0,1551343855454726753,gps_frame,4,0,39.9558065167,116.314436895,54.766,0.0,0.0,0.0,0.0,0.0,0.0,0.0,0.0,0.0,0,0.0,1.29999995232,16.0,0
1551343855542748630,4539,1551343855542419162,gps_frame,0,1551343855542419162,gps_frame,4,0,39.9558065237,116.3144369,54.765,0.0,0.0,0.0,0.0,0.0,0.0,0.0,0.0,0.0,0,0.0,1.29999995232,16.0,0
1551343855659141224,4540,1551343855658867863,gps_frame,0,1551343855658867863,gps_frame,4,0,39.9558065343,116.314436914,54.764,0.0,0.0,0.0,0.0,0.0,0.0,0.0,0.0,0.0,0,0.0,1.29999995232,16.0,0
1551343855744584882,4541,1551343855744267031,gps_frame,0,1551343855744267031,gps_frame,4,0,39.955806499,116.314436905,54.769,0.0,0.0,0.0,0.0,0.0,0.0,0.0,0.0,0.0,0,0.0,1.29999995232,16.0,0
1551343855859232486,4542,1551343855858977007,gps_frame,0,1551343855858977007,gps_frame,4,0,39.9558064987,116.314436885,54.768,0.0,0.0,0.0,0.0,0.0,0.0,0.0,0.0,0.0,0,0.0,1.29999995232,16.0,0
1551343855946799073,4543,1551343855946423931,gps_frame,0,1551343855946423931,gps_frame,4,0,39.9558065502,116.314436915,54.765,0.0,0.0,0.0,0.0,0.0,0.0,0.0,0.0,0.0,0,0.0,1.29999995232,16.0,0
1551343856065220305,4544,1551343856064891830,gps_frame,0,1551343856064891830,gps_frame,4,0,39.9558064765,116.314436906,54.77,0.0,0.0,0.0,0.0,0.0,0.0,0.0,0.0,0.0,0,0.0,1.29999995232,16.0,0
1551343856142424143,4545,1551343856142146155,gps_frame,0,1551343856142146155,gps_frame,4,0,39.9558065143,116.31443689,54.775,0.0,0.0,0.0,0.0,0.0,0.0,0.0,0.0,0.0,0,0.0,1.29999995232,16.0,0
1551343856256096231,4546,1551343856255760235,gps_frame,0,1551343856255760235,gps_frame,4,0,39.955806502,116.314436907,54.771,0.0,0.0,0.0,0.0,0.0,0.0,0.0,0.0,0.0,0,0.0,1.29999995232,16.0,0
1551343856346082708,4547,1551343856345866172,gps_frame,0,1551343856345866172,gps_frame,4,0,39.9558065005,116.31443693,54.773,0.0,0.0,0.0,0.0,0.0,0.0,0.0,0.0,0.0,0,0.0,1.39999997616,15.0,0
1551343856461336431,4548,1551343856460979724,gps_frame,0,1551343856460979724,gps_frame,4,0,39.9558064887,116.314436908,54.771,0.0,0.0,0.0,0.0,0.0,0.0,0.0,0.0,0.0,0,0.0,1.39999997616,15.0,0
1551343856545282534,4549,1551343856544987254,gps_frame,0,1551343856544987254,gps_frame,4,0,39.9558064898,116.314436931,54.774,0.0,0.0,0.0,0.0,0.0,0.0,0.0,0.0,0.0,0,0.0,1.39999997616,15.0,0
1551343856653858109,4550,1551343856653477184,gps_frame,0,1551343856653477184,gps_frame,4,0,39.9558064533,116.314436901,54.777,0.0,0.0,0.0,0.0,0.0,0.0,0.0,0.0,0.0,0,0.0,1.39999997616,15.0,0
1551343856742211324,4551,1551343856741881863,gps_frame,0,1551343856741881863,gps_frame,4,0,39.9558064908,116.31443691,54.774,0.0,0.0,0.0,0.0,0.0,0.0,0.0,0.0,0.0,0,0.0,1.39999997616,15.0,0
1551343856858455488,4552,1551343856858252577,gps_frame,0,1551343856858252577,gps_frame,4,0,39.9558064832,116.314436935,54.769,0.0,0.0,0.0,0.0,0.0,0.0,0.0,0.0,0.0,0,0.0,1.39999997616,15.0,0
1551343856942833170,4553,1551343856942524239,gps_frame,0,1551343856942524239,gps_frame,4,0,39.9558064955,116.314436887,54.777,0.0,0.0,0.0,0.0,0.0,0.0,0.0,0.0,0.0,0,0.0,1.39999997616,15.0,0
1551343857064660429,4554,1551343857064321550,gps_frame,0,1551343857064321550,gps_frame,4,0,39.955806501,116.314436895,54.77,0.0,0.0,0.0,0.0,0.0,0.0,0.0,0.0,0.0,0,0.0,1.39999997616,15.0,0
1551343857146151973,4555,1551343857145874249,gps_frame,0,1551343857145874249,gps_frame,4,0,39.9558064862,116.314436947,54.772,0.0,0.0,0.0,0.0,0.0,0.0,0.0,0.0,0.0,0,0.0,1.39999997616,15.0,0
1551343857261225459,4556,1551343857260890339,gps_frame,0,1551343857260890339,gps_frame,4,0,39.9558065398,116.314436906,54.765,0.0,0.0,0.0,0.0,0.0,0.0,0.0,0.0,0.0,0,0.0,1.39999997616,15.0,0
1551343857346253451,4557,1551343857346119997,gps_frame,0,1551343857346119997,gps_frame,4,0,39.9558064898,116.314436945,54.77,0.0,0.0,0.0,0.0,0.0,0.0,0.0,0.0,0.0,0,0.0,1.39999997616,15.0,0
1551343857458485476,4558,1551343857458310429,gps_frame,0,1551343857458310429,gps_frame,4,0,39.9558064582,116.314436939,54.787,0.0,0.0,0.0,0.0,0.0,0.0,0.0,0.0,0.0,0,0.0,1.29999995232,15.0,0
1551343857542671482,4559,1551343857542388923,gps_frame,0,1551343857542388923,gps_frame,4,0,39.955806493,116.314436963,54.778,0.0,0.0,0.0,0.0,0.0,0.0,0.0,0.0,0.0,0,0.0,1.29999995232,15.0,0
1551343857654569752,4560,1551343857654329622,gps_frame,0,1551343857654329622,gps_frame,4,0,39.9558064475,116.314436969,54.78,0.0,0.0,0.0,0.0,0.0,0.0,0.0,0.0,0.0,0,0.0,1.29999995232,15.0,0
1551343857743101643,4561,1551343857742821541,gps_frame,0,1551343857742821541,gps_frame,4,0,39.9558064585,116.314436946,54.78,0.0,0.0,0.0,0.0,0.0,0.0,0.0,0.0,0.0,0,0.0,1.29999995232,15.0,0
1551343857858548491,4562,1551343857858342890,gps_frame,0,1551343857858342890,gps_frame,4,0,39.9558064263,116.314436956,54.788,0.0,0.0,0.0,0.0,0.0,0.0,0.0,0.0,0.0,0,0.0,1.29999995232,15.0,0
1551343857942590923,4563,1551343857942210346,gps_frame,0,1551343857942210346,gps_frame,4,0,39.9558064398,116.314436948,54.785,0.0,0.0,0.0,0.0,0.0,0.0,0.0,0.0,0.0,0,0.0,1.29999995232,15.0,0
1551343858062807926,4564,1551343858062487148,gps_frame,0,1551343858062487148,gps_frame,4,0,39.955806445,116.314436959,54.785,0.0,0.0,0.0,0.0,0.0,0.0,0.0,0.0,0.0,0,0.0,1.29999995232,15.0,0
1551343858143142702,4565,1551343858142850959,gps_frame,0,1551343858142850959,gps_frame,4,0,39.9558064235,116.314436966,54.789,0.0,0.0,0.0,0.0,0.0,0.0,0.0,0.0,0.0,0,0.0,1.29999995232,15.0,0
1551343858257266240,4566,1551343858256906958,gps_frame,0,1551343858256906958,gps_frame,4,0,39.9558064212,116.314436931,54.786,0.0,0.0,0.0,0.0,0.0,0.0,0.0,0.0,0.0,0,0.0,1.29999995232,15.0,0
1551343858346568558,4567,1551343858346261992,gps_frame,0,1551343858346261992,gps_frame,4,0,39.9558065263,116.314436918,54.768,0.0,0.0,0.0,0.0,0.0,0.0,0.0,0.0,0.0,0,0.0,1.39999997616,14.0,0
1551343858461156964,4568,1551343858460837208,gps_frame,0,1551343858460837208,gps_frame,4,0,39.9558065145,116.314436902,54.771,0.0,0.0,0.0,0.0,0.0,0.0,0.0,0.0,0.0,0,0.0,1.39999997616,14.0,0
1551343858548361879,4569,1551343858548039510,gps_frame,0,1551343858548039510,gps_frame,4,0,39.9558065037,116.314436902,54.775,0.0,0.0,0.0,0.0,0.0,0.0,0.0,0.0,0.0,0,0.0,1.39999997616,14.0,0
1551343858658381160,4570,1551343858658172675,gps_frame,0,1551343858658172675,gps_frame,4,0,39.9558065335,116.314436888,54.77,0.0,0.0,0.0,0.0,0.0,0.0,0.0,0.0,0.0,0,0.0,1.39999997616,14.0,0
1551343858743227636,4571,1551343858742911338,gps_frame,0,1551343858742911338,gps_frame,4,0,39.955806521,116.314436904,54.766,0.0,0.0,0.0,0.0,0.0,0.0,0.0,0.0,0.0,0,0.0,1.39999997616,14.0,0
1551343858859657058,4572,1551343858859361991,gps_frame,0,1551343858859361991,gps_frame,4,0,39.955806537,116.31443694,54.773,0.0,0.0,0.0,0.0,0.0,0.0,0.0,0.0,0.0,0,0.0,1.39999997616,14.0,0
1551343858945716007,4573,1551343858945407209,gps_frame,0,1551343858945407209,gps_frame,4,0,39.955806527,116.314436905,54.77,0.0,0.0,0.0,0.0,0.0,0.0,0.0,0.0,0.0,0,0.0,1.39999997616,14.0,0
1551343859061289628,4574,1551343859060972250,gps_frame,0,1551343859060972250,gps_frame,4,0,39.9558065317,116.314436909,54.772,0.0,0.0,0.0,0.0,0.0,0.0,0.0,0.0,0.0,0,0.0,1.39999997616,14.0,0
1551343859143811638,4575,1551343859143488274,gps_frame,0,1551343859143488274,gps_frame,4,0,39.9558065468,116.314436918,54.763,0.0,0.0,0.0,0.0,0.0,0.0,0.0,0.0,0.0,0,0.0,1.39999997616,14.0,0
1551343859260041821,4576,1551343859259724578,gps_frame,0,1551343859259724578,gps_frame,4,0,39.9558065257,116.314436921,54.771,0.0,0.0,0.0,0.0,0.0,0.0,0.0,0.0,0.0,0,0.0,1.39999997616,14.0,0
1551343859343199637,4577,1551343859342842186,gps_frame,0,1551343859342842186,gps_frame,4,0,39.9558064702,116.314436974,54.787,0.0,0.0,0.0,0.0,0.0,0.0,0.0,0.0,0.0,0,0.0,1.29999995232,15.0,0
1551343859458491639,4578,1551343859458323019,gps_frame,0,1551343859458323019,gps_frame,4,0,39.9558064807,116.314437004,54.779,0.0,0.0,0.0,0.0,0.0,0.0,0.0,0.0,0.0,0,0.0,1.29999995232,15.0,0
1551343859546569168,4579,1551343859546261018,gps_frame,0,1551343859546261018,gps_frame,4,0,39.9558064658,116.314436987,54.788,0.0,0.0,0.0,0.0,0.0,0.0,0.0,0.0,0.0,0,0.0,1.29999995232,15.0,0
1551343859659245202,4580,1551343859658959486,gps_frame,0,1551343859658959486,gps_frame,4,0,39.9558064898,116.314437007,54.775,0.0,0.0,0.0,0.0,0.0,0.0,0.0,0.0,0.0,0,0.0,1.29999995232,15.0,0
1551343859745631352,4581,1551343859745337465,gps_frame,0,1551343859745337465,gps_frame,4,0,39.9558064765,116.314437011,54.783,0.0,0.0,0.0,0.0,0.0,0.0,0.0,0.0,0.0,0,0.0,1.29999995232,15.0,0
1551343859852777278,4582,1551343859852431887,gps_frame,0,1551343859852431887,gps_frame,4,0,39.9558064573,116.314436985,54.788,0.0,0.0,0.0,0.0,0.0,0.0,0.0,0.0,0.0,0,0.0,1.29999995232,15.0,0
1551343859942649674,4583,1551343859942323494,gps_frame,0,1551343859942323494,gps_frame,4,0,39.9558064878,116.314437019,54.779,0.0,0.0,0.0,0.0,0.0,0.0,0.0,0.0,0.0,0,0.0,1.29999995232,15.0,0
1551343860064841786,4584,1551343860064544872,gps_frame,0,1551343860064544872,gps_frame,4,0,39.9558064825,116.314436992,54.781,0.0,0.0,0.0,0.0,0.0,0.0,0.0,0.0,0.0,0,0.0,1.29999995232,15.0,0
1551343860142651117,4585,1551343860142337171,gps_frame,0,1551343860142337171,gps_frame,4,0,39.9558064433,116.314437001,54.786,0.0,0.0,0.0,0.0,0.0,0.0,0.0,0.0,0.0,0,0.0,1.29999995232,15.0,0
1551343860253092974,4586,1551343860252771662,gps_frame,0,1551343860252771662,gps_frame,4,0,39.9558064548,116.314437001,54.781,0.0,0.0,0.0,0.0,0.0,0.0,0.0,0.0,0.0,0,0.0,1.29999995232,15.0,0
1551343860344290212,4587,1551343860344020727,gps_frame,0,1551343860344020727,gps_frame,4,0,39.9558064862,116.314436942,54.777,0.0,0.0,0.0,0.0,0.0,0.0,0.0,0.0,0.0,0,0.0,1.39999997616,14.0,0
1551343860462179745,4588,1551343860461932141,gps_frame,0,1551343860461932141,gps_frame,4,0,39.9558064635,116.314436981,54.779,0.0,0.0,0.0,0.0,0.0,0.0,0.0,0.0,0.0,0,0.0,1.39999997616,14.0,0
1551343860547296185,4589,1551343860547023473,gps_frame,0,1551343860547023473,gps_frame,4,0,39.9558065178,116.314436995,54.775,0.0,0.0,0.0,0.0,0.0,0.0,0.0,0.0,0.0,0,0.0,1.39999997616,14.0,0
1551343860656178677,4590,1551343860655825899,gps_frame,0,1551343860655825899,gps_frame,4,0,39.9558064788,116.314436958,54.777,0.0,0.0,0.0,0.0,0.0,0.0,0.0,0.0,0.0,0,0.0,1.39999997616,14.0,0
1551343860745619547,4591,1551343860745285559,gps_frame,0,1551343860745285559,gps_frame,4,0,39.9558064778,116.314436982,54.782,0.0,0.0,0.0,0.0,0.0,0.0,0.0,0.0,0.0,0,0.0,1.39999997616,14.0,0
1551343860854559666,4592,1551343860854278572,gps_frame,0,1551343860854278572,gps_frame,4,0,39.955806459,116.314436961,54.778,0.0,0.0,0.0,0.0,0.0,0.0,0.0,0.0,0.0,0,0.0,1.39999997616,14.0,0
1551343860943002687,4593,1551343860942839681,gps_frame,0,1551343860942839681,gps_frame,4,0,39.9558065037,116.314436977,54.773,0.0,0.0,0.0,0.0,0.0,0.0,0.0,0.0,0.0,0,0.0,1.39999997616,14.0,0
1551343861062824599,4594,1551343861062505201,gps_frame,0,1551343861062505201,gps_frame,4,0,39.9558065115,116.314436993,54.767,0.0,0.0,0.0,0.0,0.0,0.0,0.0,0.0,0.0,0,0.0,1.39999997616,14.0,0
1551343861144118613,4595,1551343861143849109,gps_frame,0,1551343861143849109,gps_frame,4,0,39.9558064755,116.31443695,54.78,0.0,0.0,0.0,0.0,0.0,0.0,0.0,0.0,0.0,0,0.0,1.39999997616,14.0,0
1551343861259190390,4596,1551343861258964290,gps_frame,0,1551343861258964290,gps_frame,4,0,39.9558064775,116.314436978,54.775,0.0,0.0,0.0,0.0,0.0,0.0,0.0,0.0,0.0,0,0.0,1.39999997616,14.0,0
1551343861345178155,4597,1551343861344890421,gps_frame,0,1551343861344890421,gps_frame,4,0,39.9558065295,116.314436946,54.765,0.0,0.0,0.0,0.0,0.0,0.0,0.0,0.0,0.0,0,0.0,1.39999997616,14.0,0
1551343861459467612,4598,1551343861459287107,gps_frame,0,1551343861459287107,gps_frame,4,0,39.9558065265,116.314436955,54.768,0.0,0.0,0.0,0.0,0.0,0.0,0.0,0.0,0.0,0,0.0,1.70000004768,13.0,0
1551343861546495926,4599,1551343861546226972,gps_frame,0,1551343861546226972,gps_frame,4,0,39.9558064752,116.31443691,54.775,0.0,0.0,0.0,0.0,0.0,0.0,0.0,0.0,0.0,0,0.0,1.70000004768,13.0,0
1551343861657286194,4600,1551343861656997375,gps_frame,0,1551343861656997375,gps_frame,4,0,39.9558065205,116.314436867,54.77,0.0,0.0,0.0,0.0,0.0,0.0,0.0,0.0,0.0,0,0.0,1.70000004768,13.0,0
1551343861743352760,4601,1551343861743060480,gps_frame,0,1551343861743060480,gps_frame,4,0,39.9558065228,116.314436752,54.77,0.0,0.0,0.0,0.0,0.0,0.0,0.0,0.0,0.0,0,0.0,1.70000004768,13.0,0
1551343861856823436,4602,1551343861856550233,gps_frame,0,1551343861856550233,gps_frame,4,0,39.955806507,116.314436651,54.77,0.0,0.0,0.0,0.0,0.0,0.0,0.0,0.0,0.0,0,0.0,1.70000004768,13.0,0
1551343861948291118,4603,1551343861947952636,gps_frame,0,1551343861947952636,gps_frame,4,0,39.9558065347,116.314436531,54.769,0.0,0.0,0.0,0.0,0.0,0.0,0.0,0.0,0.0,0,0.0,1.70000004768,13.0,0
1551343862069831045,4604,1551343862069562658,gps_frame,0,1551343862069562658,gps_frame,4,0,39.9558065003,116.314436327,54.767,0.0,0.0,0.0,0.0,0.0,0.0,0.0,0.0,0.0,0,0.0,1.70000004768,13.0,0
1551343862146335162,4605,1551343862146066559,gps_frame,0,1551343862146066559,gps_frame,4,0,39.955806506,116.314436079,54.769,0.0,0.0,0.0,0.0,0.0,0.0,0.0,0.0,0.0,0,0.0,1.70000004768,13.0,0
1551343862255854792,4606,1551343862255492243,gps_frame,0,1551343862255492243,gps_frame,4,0,39.955806521,116.314435785,54.772,0.0,0.0,0.0,0.0,0.0,0.0,0.0,0.0,0.0,0,0.0,1.70000004768,13.0,0
1551343862342809134,4607,1551343862342444771,gps_frame,0,1551343862342444771,gps_frame,4,0,39.9558064273,116.31443541,54.795,0.0,0.0,0.0,0.0,0.0,0.0,0.0,0.0,0.0,0,0.0,1.70000004768,13.0,0
1551343862459752893,4608,1551343862459545078,gps_frame,0,1551343862459545078,gps_frame,4,0,39.955806496,116.314434889,54.773,0.0,0.0,0.0,0.0,0.0,0.0,0.0,0.0,0.0,0,0.0,1.70000004768,13.0,0
1551343862542185577,4609,1551343862541818137,gps_frame,0,1551343862541818137,gps_frame,4,0,39.9558064647,116.314434339,54.792,0.0,0.0,0.0,0.0,0.0,0.0,0.0,0.0,0.0,0,0.0,1.70000004768,13.0,0
1551343862657204217,4610,1551343862656849806,gps_frame,0,1551343862656849806,gps_frame,4,0,39.9558065142,116.314433736,54.787,0.0,0.0,0.0,0.0,0.0,0.0,0.0,0.0,0.0,0,0.0,1.70000004768,13.0,0
1551343862745746958,4611,1551343862745426149,gps_frame,0,1551343862745426149,gps_frame,4,0,39.9558065732,116.314433059,54.783,0.0,0.0,0.0,0.0,0.0,0.0,0.0,0.0,0.0,0,0.0,1.70000004768,13.0,0
1551343862852585812,4612,1551343862852285414,gps_frame,0,1551343862852285414,gps_frame,4,0,39.9558065328,116.31443235,54.787,0.0,0.0,0.0,0.0,0.0,0.0,0.0,0.0,0.0,0,0.0,1.70000004768,13.0,0
1551343862942813667,4613,1551343862942496832,gps_frame,0,1551343862942496832,gps_frame,4,0,39.9558064918,116.314431538,54.794,0.0,0.0,0.0,0.0,0.0,0.0,0.0,0.0,0.0,0,0.0,1.70000004768,13.0,0
1551343863062377825,4614,1551343863062027166,gps_frame,0,1551343863062027166,gps_frame,4,0,39.955806487,116.314430788,54.792,0.0,0.0,0.0,0.0,0.0,0.0,0.0,0.0,0.0,0,0.0,1.70000004768,13.0,0
1551343863146323269,4615,1551343863145943016,gps_frame,0,1551343863145943016,gps_frame,4,0,39.9558065053,116.314429925,54.795,0.0,0.0,0.0,0.0,0.0,0.0,0.0,0.0,0.0,0,0.0,1.70000004768,13.0,0
1551343863259206707,4616,1551343863258921209,gps_frame,0,1551343863258921209,gps_frame,4,0,39.9558064433,116.314428953,54.804,0.0,0.0,0.0,0.0,0.0,0.0,0.0,0.0,0.0,0,0.0,1.70000004768,13.0,0
1551343863344763005,4617,1551343863344421832,gps_frame,0,1551343863344421832,gps_frame,4,0,39.9558063498,116.314427954,54.78,0.0,0.0,0.0,0.0,0.0,0.0,0.0,0.0,0.0,0,0.0,1.70000004768,13.0,0
1551343863457222637,4618,1551343863456935288,gps_frame,0,1551343863456935288,gps_frame,4,0,39.9558063563,116.314426924,54.795,0.0,0.0,0.0,0.0,0.0,0.0,0.0,0.0,0.0,0,0.0,1.70000004768,13.0,0
1551343863543724056,4619,1551343863543451777,gps_frame,0,1551343863543451777,gps_frame,4,0,39.9558062808,116.314426043,54.797,0.0,0.0,0.0,0.0,0.0,0.0,0.0,0.0,0.0,0,0.0,1.70000004768,13.0,0
1551343863658333240,4620,1551343863657970811,gps_frame,0,1551343863657970811,gps_frame,4,0,39.9558064527,116.314424648,54.783,0.0,0.0,0.0,0.0,0.0,0.0,0.0,0.0,0.0,0,0.0,1.70000004768,13.0,0
1551343863745440793,4621,1551343863745083931,gps_frame,0,1551343863745083931,gps_frame,4,0,39.955806288,116.314423571,54.793,0.0,0.0,0.0,0.0,0.0,0.0,0.0,0.0,0.0,0,0.0,1.70000004768,13.0,0
1551343863852336627,4622,1551343863851976155,gps_frame,0,1551343863851976155,gps_frame,4,0,39.9558063295,116.314422207,54.786,0.0,0.0,0.0,0.0,0.0,0.0,0.0,0.0,0.0,0,0.0,1.70000004768,13.0,0
1551343863946312047,4623,1551343863945996939,gps_frame,0,1551343863945996939,gps_frame,4,0,39.9558062822,116.314420962,54.818,0.0,0.0,0.0,0.0,0.0,0.0,0.0,0.0,0.0,0,0.0,1.70000004768,13.0,0
1551343864056779781,4624,1551343864056474805,gps_frame,0,1551343864056474805,gps_frame,4,0,39.955806301,116.31441948,54.784,0.0,0.0,0.0,0.0,0.0,0.0,0.0,0.0,0.0,0,0.0,1.70000004768,13.0,0
1551343864141382334,4625,1551343864141006411,gps_frame,0,1551343864141006411,gps_frame,4,0,39.9558062973,116.314418006,54.792,0.0,0.0,0.0,0.0,0.0,0.0,0.0,0.0,0.0,0,0.0,1.70000004768,13.0,0
1551343864264374964,4626,1551343864264016982,gps_frame,0,1551343864264016982,gps_frame,4,0,39.955806264,116.31441643,54.77,0.0,0.0,0.0,0.0,0.0,0.0,0.0,0.0,0.0,0,0.0,1.70000004768,13.0,0
1551343864345169685,4627,1551343864344844838,gps_frame,0,1551343864344844838,gps_frame,4,0,39.955806264,116.314414455,54.79,0.0,0.0,0.0,0.0,0.0,0.0,0.0,0.0,0.0,0,0.0,1.70000004768,12.0,0
1551343864455489602,4628,1551343864455125700,gps_frame,0,1551343864455125700,gps_frame,4,0,39.955806178,116.314412661,54.798,0.0,0.0,0.0,0.0,0.0,0.0,0.0,0.0,0.0,0,0.0,1.70000004768,12.0,0
1551343864540991378,4629,1551343864540815533,gps_frame,0,1551343864540815533,gps_frame,4,0,39.9558061722,116.314410903,54.803,0.0,0.0,0.0,0.0,0.0,0.0,0.0,0.0,0.0,0,0.0,1.70000004768,12.0,0
1551343864654947296,4630,1551343864654570217,gps_frame,0,1551343864654570217,gps_frame,4,0,39.9558061385,116.314409,54.794,0.0,0.0,0.0,0.0,0.0,0.0,0.0,0.0,0.0,0,0.0,1.70000004768,12.0,0
1551343864742621899,4631,1551343864742303790,gps_frame,0,1551343864742303790,gps_frame,4,0,39.9558060803,116.31440682,54.774,0.0,0.0,0.0,0.0,0.0,0.0,0.0,0.0,0.0,0,0.0,1.70000004768,12.0,0
1551343864856688186,4632,1551343864856340420,gps_frame,0,1551343864856340420,gps_frame,4,0,39.9558058395,116.31440486,54.806,0.0,0.0,0.0,0.0,0.0,0.0,0.0,0.0,0.0,0,0.0,1.70000004768,12.0,0
1551343864944314491,4633,1551343864943970374,gps_frame,0,1551343864943970374,gps_frame,4,0,39.9558059012,116.314402694,54.777,0.0,0.0,0.0,0.0,0.0,0.0,0.0,0.0,0.0,0,0.0,1.70000004768,12.0,0
1551343865062260087,4634,1551343865062029830,gps_frame,0,1551343865062029830,gps_frame,4,0,39.955805732,116.314400467,54.784,0.0,0.0,0.0,0.0,0.0,0.0,0.0,0.0,0.0,0,0.0,1.70000004768,12.0,0
1551343865146816091,4635,1551343865146471456,gps_frame,0,1551343865146471456,gps_frame,4,0,39.955805492,116.314398147,54.794,0.0,0.0,0.0,0.0,0.0,0.0,0.0,0.0,0.0,0,0.0,1.70000004768,12.0,0
1551343865272674136,4636,1551343865272352406,gps_frame,0,1551343865272352406,gps_frame,4,0,39.9558054252,116.314395708,54.773,0.0,0.0,0.0,0.0,0.0,0.0,0.0,0.0,0.0,0,0.0,1.70000004768,12.0,0
1551343865345850353,4637,1551343865345521650,gps_frame,0,1551343865345521650,gps_frame,4,0,39.9558052185,116.314393253,54.773,0.0,0.0,0.0,0.0,0.0,0.0,0.0,0.0,0.0,0,0.0,2.0,11.0,0
1551343865455954458,4638,1551343865455580443,gps_frame,0,1551343865455580443,gps_frame,4,0,39.9558049932,116.314390833,54.783,0.0,0.0,0.0,0.0,0.0,0.0,0.0,0.0,0.0,0,0.0,2.0,11.0,0
1551343865542108545,4639,1551343865541919202,gps_frame,0,1551343865541919202,gps_frame,4,0,39.9558047935,116.314388304,54.788,0.0,0.0,0.0,0.0,0.0,0.0,0.0,0.0,0.0,0,0.0,2.0,11.0,0
1551343865660730121,4640,1551343865660548925,gps_frame,0,1551343865660548925,gps_frame,4,0,39.9558046218,116.314385634,54.785,0.0,0.0,0.0,0.0,0.0,0.0,0.0,0.0,0.0,0,0.0,2.0,11.0,0
1551343865740794363,4641,1551343865740574765,gps_frame,0,1551343865740574765,gps_frame,4,0,39.9558044327,116.314383004,54.811,0.0,0.0,0.0,0.0,0.0,0.0,0.0,0.0,0.0,0,0.0,2.0,11.0,0
1551343865856099394,4642,1551343865855826317,gps_frame,0,1551343865855826317,gps_frame,4,0,39.9558041915,116.314380334,54.783,0.0,0.0,0.0,0.0,0.0,0.0,0.0,0.0,0.0,0,0.0,2.0,11.0,0
1551343865946176666,4643,1551343865945845995,gps_frame,0,1551343865945845995,gps_frame,4,0,39.9558038415,116.314377521,54.813,0.0,0.0,0.0,0.0,0.0,0.0,0.0,0.0,0.0,0,0.0,2.0,11.0,0
1551343866061069686,4644,1551343866060910224,gps_frame,0,1551343866060910224,gps_frame,4,0,39.9558037742,116.31437465,54.78,0.0,0.0,0.0,0.0,0.0,0.0,0.0,0.0,0.0,0,0.0,2.0,11.0,0
1551343866145817601,4645,1551343866145485882,gps_frame,0,1551343866145485882,gps_frame,4,0,39.955803631,116.314371954,54.748,0.0,0.0,0.0,0.0,0.0,0.0,0.0,0.0,0.0,0,0.0,2.0,11.0,0
1551343866254502347,4646,1551343866254126950,gps_frame,0,1551343866254126950,gps_frame,4,0,39.9558031943,116.31436873,54.702,0.0,0.0,0.0,0.0,0.0,0.0,0.0,0.0,0.0,0,0.0,2.0,11.0,0
1551343866343969148,4647,1551343866343598333,gps_frame,0,1551343866343598333,gps_frame,4,0,39.9558028955,116.314365968,54.793,0.0,0.0,0.0,0.0,0.0,0.0,0.0,0.0,0.0,0,0.0,1.79999995232,11.0,0
1551343866461229528,4648,1551343866461033056,gps_frame,0,1551343866461033056,gps_frame,4,0,39.9558026697,116.314363261,54.794,0.0,0.0,0.0,0.0,0.0,0.0,0.0,0.0,0.0,0,0.0,1.79999995232,11.0,0
1551343866544433717,4649,1551343866544105386,gps_frame,0,1551343866544105386,gps_frame,4,0,39.9558023378,116.314359975,54.795,0.0,0.0,0.0,0.0,0.0,0.0,0.0,0.0,0.0,0,0.0,1.79999995232,11.0,0
1551343866656720642,4650,1551343866656363284,gps_frame,0,1551343866656363284,gps_frame,4,0,39.9558019547,116.314357054,54.822,0.0,0.0,0.0,0.0,0.0,0.0,0.0,0.0,0.0,0,0.0,1.79999995232,11.0,0
1551343866746088618,4651,1551343866745658054,gps_frame,0,1551343866745658054,gps_frame,4,0,39.9558016328,116.314353817,54.799,0.0,0.0,0.0,0.0,0.0,0.0,0.0,0.0,0.0,0,0.0,1.79999995232,11.0,0
1551343866856734692,4652,1551343866856380699,gps_frame,0,1551343866856380699,gps_frame,4,0,39.9558013398,116.31435023,54.82,0.0,0.0,0.0,0.0,0.0,0.0,0.0,0.0,0.0,0,0.0,1.79999995232,11.0,0
1551343866945126913,4653,1551343866944834847,gps_frame,0,1551343866944834847,gps_frame,4,0,39.9558010035,116.314346565,54.801,0.0,0.0,0.0,0.0,0.0,0.0,0.0,0.0,0.0,0,0.0,1.79999995232,11.0,0
1551343867058618760,4654,1551343867058374552,gps_frame,0,1551343867058374552,gps_frame,4,0,39.9558005093,116.314342794,54.787,0.0,0.0,0.0,0.0,0.0,0.0,0.0,0.0,0.0,0,0.0,1.79999995232,11.0,0
1551343867145674887,4655,1551343867145331457,gps_frame,0,1551343867145331457,gps_frame,4,0,39.9558001497,116.31433871,54.798,0.0,0.0,0.0,0.0,0.0,0.0,0.0,0.0,0.0,0,0.0,1.79999995232,11.0,0
1551343867261050459,4656,1551343867260827200,gps_frame,0,1551343867260827200,gps_frame,4,0,39.9557996267,116.314334529,54.736,0.0,0.0,0.0,0.0,0.0,0.0,0.0,0.0,0.0,0,0.0,1.79999995232,11.0,0
1551343867345682764,4657,1551343867345394868,gps_frame,0,1551343867345394868,gps_frame,4,0,39.9557990232,116.314330013,54.819,0.0,0.0,0.0,0.0,0.0,0.0,0.0,0.0,0.0,0,0.0,1.60000002384,10.0,0
1551343867453286881,4658,1551343867452999232,gps_frame,0,1551343867452999232,gps_frame,4,0,39.955798817,116.314325747,54.725,0.0,0.0,0.0,0.0,0.0,0.0,0.0,0.0,0.0,0,0.0,1.60000002384,10.0,0
1551343867546792533,4659,1551343867546457947,gps_frame,0,1551343867546457947,gps_frame,4,0,39.9557981578,116.314320989,54.793,0.0,0.0,0.0,0.0,0.0,0.0,0.0,0.0,0.0,0,0.0,1.60000002384,10.0,0
1551343867656205663,4660,1551343867655823101,gps_frame,0,1551343867655823101,gps_frame,4,0,39.9557976172,116.314316084,54.801,0.0,0.0,0.0,0.0,0.0,0.0,0.0,0.0,0.0,0,0.0,1.60000002384,10.0,0
1551343867741368182,4661,1551343867741049796,gps_frame,0,1551343867741049796,gps_frame,4,0,39.9557972428,116.314311088,54.82,0.0,0.0,0.0,0.0,0.0,0.0,0.0,0.0,0.0,0,0.0,1.60000002384,10.0,0
1551343867855942308,4662,1551343867855559887,gps_frame,0,1551343867855559887,gps_frame,4,0,39.9557967312,116.314306222,54.792,0.0,0.0,0.0,0.0,0.0,0.0,0.0,0.0,0.0,0,0.0,1.60000002384,10.0,0
1551343867941277586,4663,1551343867940949989,gps_frame,0,1551343867940949989,gps_frame,4,0,39.9557963758,116.314301033,54.802,0.0,0.0,0.0,0.0,0.0,0.0,0.0,0.0,0.0,0,0.0,1.60000002384,10.0,0
1551343868060906141,4664,1551343868060613500,gps_frame,0,1551343868060613500,gps_frame,4,0,39.9557959053,116.314296188,54.735,0.0,0.0,0.0,0.0,0.0,0.0,0.0,0.0,0.0,0,0.0,1.60000002384,10.0,0
1551343868146126741,4665,1551343868145820418,gps_frame,0,1551343868145820418,gps_frame,4,0,39.9557954522,116.314290841,54.722,0.0,0.0,0.0,0.0,0.0,0.0,0.0,0.0,0.0,0,0.0,1.60000002384,10.0,0
1551343868254430849,4666,1551343868254110997,gps_frame,0,1551343868254110997,gps_frame,4,0,39.9557949577,116.314285479,54.767,0.0,0.0,0.0,0.0,0.0,0.0,0.0,0.0,0.0,0,0.0,1.60000002384,10.0,0
1551343868349702724,4667,1551343868349408954,gps_frame,0,1551343868349408954,gps_frame,4,0,39.9557945977,116.314279986,54.76,0.0,0.0,0.0,0.0,0.0,0.0,0.0,0.0,0.0,0,0.0,1.60000002384,10.0,0
1551343868456355900,4668,1551343868455977391,gps_frame,0,1551343868455977391,gps_frame,4,0,39.9557940907,116.314274062,54.81,0.0,0.0,0.0,0.0,0.0,0.0,0.0,0.0,0.0,0,0.0,2.0,9.0,0
1551343868542442487,4669,1551343868542125715,gps_frame,0,1551343868542125715,gps_frame,4,0,39.9557936522,116.314268364,54.803,0.0,0.0,0.0,0.0,0.0,0.0,0.0,0.0,0.0,0,0.0,2.0,9.0,0
1551343868657598060,4670,1551343868657198564,gps_frame,0,1551343868657198564,gps_frame,4,0,39.9557934705,116.314262543,54.823,0.0,0.0,0.0,0.0,0.0,0.0,0.0,0.0,0.0,0,0.0,2.0,9.0,0
1551343868742310764,4671,1551343868741991583,gps_frame,0,1551343868741991583,gps_frame,4,0,39.955793115,116.314256568,54.803,0.0,0.0,0.0,0.0,0.0,0.0,0.0,0.0,0.0,0,0.0,2.0,9.0,0
1551343868858618851,4672,1551343868858472852,gps_frame,0,1551343868858472852,gps_frame,4,0,39.955792782,116.314250521,54.806,0.0,0.0,0.0,0.0,0.0,0.0,0.0,0.0,0.0,0,0.0,2.0,9.0,0
1551343868944499105,4673,1551343868944140802,gps_frame,0,1551343868944140802,gps_frame,4,0,39.955792497,116.314244312,54.791,0.0,0.0,0.0,0.0,0.0,0.0,0.0,0.0,0.0,0,0.0,2.0,9.0,0
1551343869060229140,4674,1551343869059899091,gps_frame,0,1551343869059899091,gps_frame,4,0,39.9557922017,116.314237931,54.787,0.0,0.0,0.0,0.0,0.0,0.0,0.0,0.0,0.0,0,0.0,2.0,9.0,0
1551343869144374305,4675,1551343869144162784,gps_frame,0,1551343869144162784,gps_frame,4,0,39.9557918953,116.314231513,54.816,0.0,0.0,0.0,0.0,0.0,0.0,0.0,0.0,0.0,0,0.0,2.0,9.0,0
1551343869255073081,4676,1551343869254697489,gps_frame,0,1551343869254697489,gps_frame,4,0,39.9557917648,116.314224985,54.789,0.0,0.0,0.0,0.0,0.0,0.0,0.0,0.0,0.0,0,0.0,2.0,9.0,0
1551343869340766710,4677,1551343869340444158,gps_frame,0,1551343869340444158,gps_frame,4,0,39.9557915768,116.31421839,54.817,0.0,0.0,0.0,0.0,0.0,0.0,0.0,0.0,0.0,0,0.0,2.0,9.0,0
1551343869455072008,4678,1551343869454695982,gps_frame,0,1551343869454695982,gps_frame,4,0,39.955791327,116.31421157,54.817,0.0,0.0,0.0,0.0,0.0,0.0,0.0,0.0,0.0,0,0.0,2.0,9.0,0
1551343869542341227,4679,1551343869542016036,gps_frame,0,1551343869542016036,gps_frame,4,0,39.9557911902,116.314204596,54.824,0.0,0.0,0.0,0.0,0.0,0.0,0.0,0.0,0.0,0,0.0,2.0,9.0,0
1551343869655501082,4680,1551343869655310089,gps_frame,0,1551343869655310089,gps_frame,4,0,39.9557910855,116.314197721,54.82,0.0,0.0,0.0,0.0,0.0,0.0,0.0,0.0,0.0,0,0.0,2.0,9.0,0
1551343869742816817,4681,1551343869742472321,gps_frame,0,1551343869742472321,gps_frame,4,0,39.9557909285,116.314190625,54.812,0.0,0.0,0.0,0.0,0.0,0.0,0.0,0.0,0.0,0,0.0,2.0,9.0,0
1551343869858591998,4682,1551343869858382954,gps_frame,0,1551343869858382954,gps_frame,4,0,39.9557908908,116.314183279,54.803,0.0,0.0,0.0,0.0,0.0,0.0,0.0,0.0,0.0,0,0.0,2.0,9.0,0
1551343869943936685,4683,1551343869943640225,gps_frame,0,1551343869943640225,gps_frame,4,0,39.955790823,116.31417598,54.783,0.0,0.0,0.0,0.0,0.0,0.0,0.0,0.0,0.0,0,0.0,2.0,9.0,0
1551343870060445615,4684,1551343870060086063,gps_frame,0,1551343870060086063,gps_frame,4,0,39.9557909103,116.314168583,54.792,0.0,0.0,0.0,0.0,0.0,0.0,0.0,0.0,0.0,0,0.0,2.0,9.0,0
1551343870140910652,4685,1551343870140617727,gps_frame,0,1551343870140617727,gps_frame,4,0,39.9557908588,116.314161082,54.807,0.0,0.0,0.0,0.0,0.0,0.0,0.0,0.0,0.0,0,0.0,2.0,9.0,0
1551343870256523044,4686,1551343870256173675,gps_frame,0,1551343870256173675,gps_frame,4,0,39.955790799,116.314153476,54.803,0.0,0.0,0.0,0.0,0.0,0.0,0.0,0.0,0.0,0,0.0,2.0,9.0,0
1551343870345374271,4687,1551343870345053667,gps_frame,0,1551343870345053667,gps_frame,4,0,39.9557906808,116.31414584,54.786,0.0,0.0,0.0,0.0,0.0,0.0,0.0,0.0,0.0,0,0.0,1.60000002384,10.0,0
1551343870461250880,4688,1551343870460958406,gps_frame,0,1551343870460958406,gps_frame,4,0,39.9557908027,116.314137997,54.775,0.0,0.0,0.0,0.0,0.0,0.0,0.0,0.0,0.0,0,0.0,1.60000002384,10.0,0
1551343870547003571,4689,1551343870546650998,gps_frame,0,1551343870546650998,gps_frame,4,0,39.9557906832,116.314130152,54.824,0.0,0.0,0.0,0.0,0.0,0.0,0.0,0.0,0.0,0,0.0,1.60000002384,10.0,0
1551343870653056203,4690,1551343870652705353,gps_frame,0,1551343870652705353,gps_frame,4,0,39.9557906402,116.314122081,54.822,0.0,0.0,0.0,0.0,0.0,0.0,0.0,0.0,0.0,0,0.0,1.60000002384,10.0,0
1551343870741082981,4691,1551343870740719143,gps_frame,0,1551343870740719143,gps_frame,4,0,39.9557906342,116.314113888,54.802,0.0,0.0,0.0,0.0,0.0,0.0,0.0,0.0,0.0,0,0.0,1.60000002384,10.0,0
1551343870856255165,4692,1551343870855873533,gps_frame,0,1551343870855873533,gps_frame,4,0,39.9557905738,116.314105726,54.812,0.0,0.0,0.0,0.0,0.0,0.0,0.0,0.0,0.0,0,0.0,1.60000002384,10.0,0
1551343870942814453,4693,1551343870942526336,gps_frame,0,1551343870942526336,gps_frame,4,0,39.9557906788,116.314097392,54.793,0.0,0.0,0.0,0.0,0.0,0.0,0.0,0.0,0.0,0,0.0,1.60000002384,10.0,0
1551343871060933974,4694,1551343871060651044,gps_frame,0,1551343871060651044,gps_frame,4,0,39.9557906693,116.314088917,54.786,0.0,0.0,0.0,0.0,0.0,0.0,0.0,0.0,0.0,0,0.0,1.60000002384,10.0,0
1551343871150265928,4695,1551343871150080092,gps_frame,0,1551343871150080092,gps_frame,4,0,39.955790572,116.314080431,54.823,0.0,0.0,0.0,0.0,0.0,0.0,0.0,0.0,0.0,0,0.0,1.60000002384,10.0,0
1551343871260270305,4696,1551343871259993400,gps_frame,0,1551343871259993400,gps_frame,4,0,39.9557905637,116.314071823,54.838,0.0,0.0,0.0,0.0,0.0,0.0,0.0,0.0,0.0,0,0.0,1.89999997616,8.0,0
1551343871345407795,4697,1551343871345128962,gps_frame,0,1551343871345128962,gps_frame,4,0,39.9557906192,116.314063249,54.834,0.0,0.0,0.0,0.0,0.0,0.0,0.0,0.0,0.0,0,0.0,1.89999997616,8.0,0
1551343871452083382,4698,1551343871451745616,gps_frame,0,1551343871451745616,gps_frame,4,0,39.9557906795,116.314054633,54.843,0.0,0.0,0.0,0.0,0.0,0.0,0.0,0.0,0.0,0,0.0,1.89999997616,8.0,0
1551343871542336291,4699,1551343871542016940,gps_frame,0,1551343871542016940,gps_frame,4,0,39.9557907423,116.314045918,54.839,0.0,0.0,0.0,0.0,0.0,0.0,0.0,0.0,0.0,0,0.0,1.89999997616,8.0,0
1551343871655086763,4700,1551343871654706530,gps_frame,0,1551343871654706530,gps_frame,4,0,39.9557908042,116.314037149,54.832,0.0,0.0,0.0,0.0,0.0,0.0,0.0,0.0,0.0,0,0.0,1.89999997616,8.0,0
1551343871741524152,4701,1551343871741219085,gps_frame,0,1551343871741219085,gps_frame,4,0,39.9557908608,116.314028385,54.846,0.0,0.0,0.0,0.0,0.0,0.0,0.0,0.0,0.0,0,0.0,1.89999997616,8.0,0
1551343871855009310,4702,1551343871854615132,gps_frame,0,1551343871854615132,gps_frame,4,0,39.9557910043,116.314019456,54.847,0.0,0.0,0.0,0.0,0.0,0.0,0.0,0.0,0.0,0,0.0,1.89999997616,8.0,0
1551343871945509898,4703,1551343871945186010,gps_frame,0,1551343871945186010,gps_frame,4,0,39.9557909922,116.314010605,54.837,0.0,0.0,0.0,0.0,0.0,0.0,0.0,0.0,0.0,0,0.0,1.89999997616,8.0,0
1551343872066463992,4704,1551343872066188630,gps_frame,0,1551343872066188630,gps_frame,4,0,39.9557911947,116.314001534,54.837,0.0,0.0,0.0,0.0,0.0,0.0,0.0,0.0,0.0,0,0.0,1.89999997616,8.0,0
1551343872144452552,4705,1551343872144124227,gps_frame,0,1551343872144124227,gps_frame,4,0,39.9557913327,116.313992545,54.841,0.0,0.0,0.0,0.0,0.0,0.0,0.0,0.0,0.0,0,0.0,1.89999997616,8.0,0
1551343872251586163,4706,1551343872251263950,gps_frame,0,1551343872251263950,gps_frame,4,0,39.955791483,116.313983442,54.833,0.0,0.0,0.0,0.0,0.0,0.0,0.0,0.0,0.0,0,0.0,1.89999997616,8.0,0
1551343872340784422,4707,1551343872340491373,gps_frame,0,1551343872340491373,gps_frame,4,0,39.9557917165,116.313974224,54.818,0.0,0.0,0.0,0.0,0.0,0.0,0.0,0.0,0.0,0,0.0,2.29999995232,9.0,0
1551343872459376416,4708,1551343872459020221,gps_frame,0,1551343872459020221,gps_frame,4,0,39.9557917795,116.313965015,54.84,0.0,0.0,0.0,0.0,0.0,0.0,0.0,0.0,0.0,0,0.0,2.29999995232,9.0,0
1551343872541051487,4709,1551343872540731166,gps_frame,0,1551343872540731166,gps_frame,4,0,39.9557919387,116.313955686,54.845,0.0,0.0,0.0,0.0,0.0,0.0,0.0,0.0,0.0,0,0.0,2.29999995232,9.0,0
1551343872653016737,4710,1551343872652628950,gps_frame,0,1551343872652628950,gps_frame,4,0,39.9557921498,116.313946297,54.828,0.0,0.0,0.0,0.0,0.0,0.0,0.0,0.0,0.0,0,0.0,2.29999995232,9.0,0
1551343872740383445,4711,1551343872740091174,gps_frame,0,1551343872740091174,gps_frame,4,0,39.9557923207,116.313936801,54.832,0.0,0.0,0.0,0.0,0.0,0.0,0.0,0.0,0.0,0,0.0,2.29999995232,9.0,0
1551343872855066845,4712,1551343872854674478,gps_frame,0,1551343872854674478,gps_frame,4,0,39.955792441,116.313927335,54.854,0.0,0.0,0.0,0.0,0.0,0.0,0.0,0.0,0.0,0,0.0,2.29999995232,9.0,0
1551343872941275559,4713,1551343872940919528,gps_frame,0,1551343872940919528,gps_frame,4,0,39.9557926462,116.313917753,54.828,0.0,0.0,0.0,0.0,0.0,0.0,0.0,0.0,0.0,0,0.0,2.29999995232,9.0,0
1551343873060931418,4714,1551343873060624104,gps_frame,0,1551343873060624104,gps_frame,4,0,39.9557929778,116.313908106,54.847,0.0,0.0,0.0,0.0,0.0,0.0,0.0,0.0,0.0,0,0.0,2.29999995232,9.0,0
1551343873141390533,4715,1551343873141073965,gps_frame,0,1551343873141073965,gps_frame,4,0,39.9557931995,116.313898413,54.848,0.0,0.0,0.0,0.0,0.0,0.0,0.0,0.0,0.0,0,0.0,2.29999995232,9.0,0
1551343873256034629,4716,1551343873255734810,gps_frame,0,1551343873255734810,gps_frame,4,0,39.9557934377,116.313888624,54.835,0.0,0.0,0.0,0.0,0.0,0.0,0.0,0.0,0.0,0,0.0,2.29999995232,9.0,0
1551343873345332827,4717,1551343873344997200,gps_frame,0,1551343873344997200,gps_frame,4,0,39.9557939537,116.313878752,54.789,0.0,0.0,0.0,0.0,0.0,0.0,0.0,0.0,0.0,0,0.0,1.29999995232,11.0,0
1551343873450909726,4718,1551343873450571622,gps_frame,0,1551343873450571622,gps_frame,4,0,39.955794112,116.313868883,54.778,0.0,0.0,0.0,0.0,0.0,0.0,0.0,0.0,0.0,0,0.0,1.29999995232,11.0,0
1551343873545085924,4719,1551343873544719029,gps_frame,0,1551343873544719029,gps_frame,4,0,39.9557943917,116.313858982,54.788,0.0,0.0,0.0,0.0,0.0,0.0,0.0,0.0,0.0,0,0.0,1.29999995232,11.0,0
1551343873656768664,4720,1551343873656433788,gps_frame,0,1551343873656433788,gps_frame,4,0,39.955794683,116.313849002,54.771,0.0,0.0,0.0,0.0,0.0,0.0,0.0,0.0,0.0,0,0.0,1.29999995232,11.0,0
1551343873741141684,4721,1551343873740984715,gps_frame,0,1551343873740984715,gps_frame,4,0,39.9557949578,116.313839007,54.773,0.0,0.0,0.0,0.0,0.0,0.0,0.0,0.0,0.0,0,0.0,1.29999995232,11.0,0
1551343873855995824,4722,1551343873855661776,gps_frame,0,1551343873855661776,gps_frame,4,0,39.9557952287,116.313828848,54.767,0.0,0.0,0.0,0.0,0.0,0.0,0.0,0.0,0.0,0,0.0,1.29999995232,11.0,0
1551343873940943551,4723,1551343873940720322,gps_frame,0,1551343873940720322,gps_frame,4,0,39.9557955243,116.313818687,54.782,0.0,0.0,0.0,0.0,0.0,0.0,0.0,0.0,0.0,0,0.0,1.29999995232,11.0,0
1551343874062870568,4724,1551343874062481298,gps_frame,0,1551343874062481298,gps_frame,4,0,39.9557958303,116.313808442,54.778,0.0,0.0,0.0,0.0,0.0,0.0,0.0,0.0,0.0,0,0.0,1.29999995232,11.0,0
1551343874142907793,4725,1551343874142572368,gps_frame,0,1551343874142572368,gps_frame,4,0,39.9557961607,116.313798158,54.788,0.0,0.0,0.0,0.0,0.0,0.0,0.0,0.0,0.0,0,0.0,1.29999995232,11.0,0
1551343874258314241,4726,1551343874258116501,gps_frame,0,1551343874258116501,gps_frame,4,0,39.9557964635,116.313787864,54.79,0.0,0.0,0.0,0.0,0.0,0.0,0.0,0.0,0.0,0,0.0,1.29999995232,11.0,0
1551343874346581282,4727,1551343874346207761,gps_frame,0,1551343874346207761,gps_frame,4,0,39.9557965543,116.313777559,54.785,0.0,0.0,0.0,0.0,0.0,0.0,0.0,0.0,0.0,0,0.0,1.29999995232,11.0,0
1551343874459882165,4728,1551343874459567475,gps_frame,0,1551343874459567475,gps_frame,4,0,39.9557968583,116.313767019,54.782,0.0,0.0,0.0,0.0,0.0,0.0,0.0,0.0,0.0,0,0.0,1.29999995232,11.0,0
1551343874546423373,4729,1551343874546093600,gps_frame,0,1551343874546093600,gps_frame,4,0,39.9557972223,116.313756564,54.794,0.0,0.0,0.0,0.0,0.0,0.0,0.0,0.0,0.0,0,0.0,1.29999995232,11.0,0
1551343874654330012,4730,1551343874653987298,gps_frame,0,1551343874653987298,gps_frame,4,0,39.955797523,116.313746068,54.791,0.0,0.0,0.0,0.0,0.0,0.0,0.0,0.0,0.0,0,0.0,1.29999995232,11.0,0
1551343874740901642,4731,1551343874740657197,gps_frame,0,1551343874740657197,gps_frame,4,0,39.955797867,116.313735401,54.802,0.0,0.0,0.0,0.0,0.0,0.0,0.0,0.0,0.0,0,0.0,1.29999995232,11.0,0
1551343874855742978,4732,1551343874855416824,gps_frame,0,1551343874855416824,gps_frame,4,0,39.9557982393,116.313724724,54.793,0.0,0.0,0.0,0.0,0.0,0.0,0.0,0.0,0.0,0,0.0,1.29999995232,11.0,0
1551343874942205389,4733,1551343874941890178,gps_frame,0,1551343874941890178,gps_frame,4,0,39.9557985638,116.313714035,54.804,0.0,0.0,0.0,0.0,0.0,0.0,0.0,0.0,0.0,0,0.0,1.29999995232,11.0,0
1551343875060942098,4734,1551343875060615704,gps_frame,0,1551343875060615704,gps_frame,4,0,39.9557988543,116.313703233,54.794,0.0,0.0,0.0,0.0,0.0,0.0,0.0,0.0,0.0,0,0.0,1.29999995232,11.0,0
1551343875145814869,4735,1551343875145447197,gps_frame,0,1551343875145447197,gps_frame,4,0,39.9557992008,116.313692327,54.802,0.0,0.0,0.0,0.0,0.0,0.0,0.0,0.0,0.0,0,0.0,1.29999995232,11.0,0
1551343875257344292,4736,1551343875256963521,gps_frame,0,1551343875256963521,gps_frame,4,0,39.9557995277,116.313681433,54.797,0.0,0.0,0.0,0.0,0.0,0.0,0.0,0.0,0.0,0,0.0,1.29999995232,11.0,0
1551343875343373170,4737,1551343875343090609,gps_frame,0,1551343875343090609,gps_frame,4,0,39.9557998692,116.313670606,54.829,0.0,0.0,0.0,0.0,0.0,0.0,0.0,0.0,0.0,0,0.0,1.29999995232,12.0,0
1551343875455799479,4738,1551343875455515999,gps_frame,0,1551343875455515999,gps_frame,4,0,39.9558002185,116.313659503,54.802,0.0,0.0,0.0,0.0,0.0,0.0,0.0,0.0,0.0,0,0.0,1.29999995232,12.0,0
1551343875545844677,4739,1551343875545525081,gps_frame,0,1551343875545525081,gps_frame,4,0,39.9558004915,116.313648464,54.812,0.0,0.0,0.0,0.0,0.0,0.0,0.0,0.0,0.0,0,0.0,1.29999995232,12.0,0
1551343875655049347,4740,1551343875654695901,gps_frame,0,1551343875654695901,gps_frame,4,0,39.9558008767,116.31363728,54.801,0.0,0.0,0.0,0.0,0.0,0.0,0.0,0.0,0.0,0,0.0,1.29999995232,12.0,0
1551343875745392862,4741,1551343875745060914,gps_frame,0,1551343875745060914,gps_frame,4,0,39.9558012515,116.313626089,54.783,0.0,0.0,0.0,0.0,0.0,0.0,0.0,0.0,0.0,0,0.0,1.29999995232,12.0,0
1551343875851165639,4742,1551343875850796207,gps_frame,0,1551343875850796207,gps_frame,4,0,39.9558015418,116.313614857,54.804,0.0,0.0,0.0,0.0,0.0,0.0,0.0,0.0,0.0,0,0.0,1.29999995232,12.0,0
1551343875941564195,4743,1551343875941241155,gps_frame,0,1551343875941241155,gps_frame,4,0,39.9558019152,116.313603666,54.84,0.0,0.0,0.0,0.0,0.0,0.0,0.0,0.0,0.0,0,0.0,1.29999995232,12.0,0
1551343876060975371,4744,1551343876060741486,gps_frame,0,1551343876060741486,gps_frame,4,0,39.9558022927,116.313592165,54.785,0.0,0.0,0.0,0.0,0.0,0.0,0.0,0.0,0.0,0,0.0,1.29999995232,12.0,0
1551343876141281374,4745,1551343876140959471,gps_frame,0,1551343876140959471,gps_frame,4,0,39.955802649,116.313580776,54.792,0.0,0.0,0.0,0.0,0.0,0.0,0.0,0.0,0.0,0,0.0,1.29999995232,12.0,0
1551343876264401009,4746,1551343876264066543,gps_frame,0,1551343876264066543,gps_frame,4,0,39.9558029765,116.313569281,54.788,0.0,0.0,0.0,0.0,0.0,0.0,0.0,0.0,0.0,0,0.0,1.29999995232,12.0,0
1551343876342926319,4747,1551343876342601867,gps_frame,0,1551343876342601867,gps_frame,4,0,39.9558033682,116.313557712,54.79,0.0,0.0,0.0,0.0,0.0,0.0,0.0,0.0,0.0,0,0.0,1.20000004768,13.0,0
1551343876460019503,4748,1551343876459661610,gps_frame,0,1551343876459661610,gps_frame,4,0,39.955803704,116.313546111,54.814,0.0,0.0,0.0,0.0,0.0,0.0,0.0,0.0,0.0,0,0.0,1.20000004768,13.0,0
1551343876544966273,4749,1551343876544648975,gps_frame,0,1551343876544648975,gps_frame,4,0,39.9558040222,116.313534466,54.805,0.0,0.0,0.0,0.0,0.0,0.0,0.0,0.0,0.0,0,0.0,1.20000004768,13.0,0
1551343876655491645,4750,1551343876655107596,gps_frame,0,1551343876655107596,gps_frame,4,0,39.955804339,116.313522758,54.801,0.0,0.0,0.0,0.0,0.0,0.0,0.0,0.0,0.0,0,0.0,1.20000004768,13.0,0
1551343876742649813,4751,1551343876742309738,gps_frame,0,1551343876742309738,gps_frame,4,0,39.9558046988,116.313510976,54.801,0.0,0.0,0.0,0.0,0.0,0.0,0.0,0.0,0.0,0,0.0,1.20000004768,13.0,0
1551343876852503338,4752,1551343876852200490,gps_frame,0,1551343876852200490,gps_frame,4,0,39.9558050255,116.313499225,54.808,0.0,0.0,0.0,0.0,0.0,0.0,0.0,0.0,0.0,0,0.0,1.20000004768,13.0,0
1551343876940535690,4753,1551343876940185866,gps_frame,0,1551343876940185866,gps_frame,4,0,39.9558053952,116.313487354,54.785,0.0,0.0,0.0,0.0,0.0,0.0,0.0,0.0,0.0,0,0.0,1.20000004768,13.0,0
1551343877060108786,4754,1551343877059773351,gps_frame,0,1551343877059773351,gps_frame,4,0,39.9558057838,116.313475409,54.796,0.0,0.0,0.0,0.0,0.0,0.0,0.0,0.0,0.0,0,0.0,1.20000004768,13.0,0
1551343877140599528,4755,1551343877140305691,gps_frame,0,1551343877140305691,gps_frame,4,0,39.9558061212,116.313463438,54.81,0.0,0.0,0.0,0.0,0.0,0.0,0.0,0.0,0.0,0,0.0,1.20000004768,13.0,0
1551343877256659316,4756,1551343877256316836,gps_frame,0,1551343877256316836,gps_frame,4,0,39.9558064712,116.313451467,54.814,0.0,0.0,0.0,0.0,0.0,0.0,0.0,0.0,0.0,0,0.0,1.20000004768,13.0,0
1551343877342351200,4757,1551343877342174291,gps_frame,0,1551343877342174291,gps_frame,4,0,39.9558067442,116.313439329,54.797,0.0,0.0,0.0,0.0,0.0,0.0,0.0,0.0,0.0,0,0.0,1.20000004768,11.0,0
1551343877456100398,4758,1551343877455718759,gps_frame,0,1551343877455718759,gps_frame,4,0,39.9558071145,116.313427165,54.809,0.0,0.0,0.0,0.0,0.0,0.0,0.0,0.0,0.0,0,0.0,1.20000004768,11.0,0
1551343877545906879,4759,1551343877545552260,gps_frame,0,1551343877545552260,gps_frame,4,0,39.9558074933,116.313415109,54.818,0.0,0.0,0.0,0.0,0.0,0.0,0.0,0.0,0.0,0,0.0,1.20000004768,11.0,0
1551343877654481076,4760,1551343877654171591,gps_frame,0,1551343877654171591,gps_frame,4,0,39.9558077952,116.313402737,54.795,0.0,0.0,0.0,0.0,0.0,0.0,0.0,0.0,0.0,0,0.0,1.20000004768,11.0,0
1551343877740379493,4761,1551343877740045405,gps_frame,0,1551343877740045405,gps_frame,4,0,39.9558081522,116.313390467,54.807,0.0,0.0,0.0,0.0,0.0,0.0,0.0,0.0,0.0,0,0.0,1.20000004768,11.0,0
1551343877856819851,4762,1551343877856524916,gps_frame,0,1551343877856524916,gps_frame,4,0,39.9558084557,116.313378103,54.802,0.0,0.0,0.0,0.0,0.0,0.0,0.0,0.0,0.0,0,0.0,1.20000004768,11.0,0
1551343877941517800,4763,1551343877941197473,gps_frame,0,1551343877941197473,gps_frame,4,0,39.9558088288,116.313365714,54.817,0.0,0.0,0.0,0.0,0.0,0.0,0.0,0.0,0.0,0,0.0,1.20000004768,11.0,0
1551343878065483807,4764,1551343878065155632,gps_frame,0,1551343878065155632,gps_frame,4,0,39.9558092145,116.313353189,54.806,0.0,0.0,0.0,0.0,0.0,0.0,0.0,0.0,0.0,0,0.0,1.20000004768,11.0,0
1551343878146335971,4765,1551343878146032185,gps_frame,0,1551343878146032185,gps_frame,4,0,39.9558095482,116.313340651,54.803,0.0,0.0,0.0,0.0,0.0,0.0,0.0,0.0,0.0,0,0.0,1.20000004768,11.0,0
1551343878255488573,4766,1551343878255104508,gps_frame,0,1551343878255104508,gps_frame,4,0,39.955809964,116.313327968,54.799,0.0,0.0,0.0,0.0,0.0,0.0,0.0,0.0,0.0,0,0.0,1.20000004768,11.0,0
1551343878340976217,4767,1551343878340772610,gps_frame,0,1551343878340772610,gps_frame,4,0,39.9558104005,116.313315198,54.849,0.0,0.0,0.0,0.0,0.0,0.0,0.0,0.0,0.0,0,0.0,1.20000004768,11.0,0
1551343878460942056,4768,1551343878460655292,gps_frame,0,1551343878460655292,gps_frame,4,0,39.9558107802,116.313302579,54.854,0.0,0.0,0.0,0.0,0.0,0.0,0.0,0.0,0.0,0,0.0,1.20000004768,11.0,0
1551343878543396657,4769,1551343878543084856,gps_frame,0,1551343878543084856,gps_frame,4,0,39.9558111162,116.313289745,54.827,0.0,0.0,0.0,0.0,0.0,0.0,0.0,0.0,0.0,0,0.0,1.20000004768,11.0,0
